{
"type": "FeatureCollection",
"name": "gate",
"crs": { "type": "name", "properties": { "name": "urn:ogc:def:crs:OGC:1.3:CRS84" } },
"features": [
{ "type": "Feature", "properties": { "nome": "Cipro", "percorso": 1 }, "geometry": { "type": "Point", "coordinates": [ 12.447504493062079, 41.907719410126603 ] } },
{ "type": "Feature", "properties": { "nome": "Ottaviano", "percorso": 2 }, "geometry": { "type": "Point", "coordinates": [ 12.457923762621219, 41.909331358932654 ] } },
{ "type": "Feature", "properties": { "nome": "S. Pietro Station", "percorso": 3 }, "geometry": { "type": "Point", "coordinates": [ 12.45459138278563, 41.896351446267921 ] } },
{ "type": "Feature", "properties": { "nome": "Lepanto", "percorso": 4 }, "geometry": { "type": "Point", "coordinates": [ 12.466270034167211, 41.911341554611361 ] } },
{ "type": "Feature", "properties": { "nome": "Ponte Cavour", "percorso": 5 }, "geometry": { "type": "Point", "coordinates": [ 12.475417538726292, 41.904912834016123 ] } },
{ "type": "Feature", "properties": { "nome": "Ponte Umberto I", "percorso": 6 }, "geometry": { "type": "Point", "coordinates": [ 12.471773954690526, 41.901960789943068 ] } },
{ "type": "Feature", "properties": { "nome": "Ponte Vittorio Emanuele II", "percorso": 7 }, "geometry": { "type": "Point", "coordinates": [ 12.464941217601755, 41.900708298392502 ] } },
{ "type": "Feature", "properties": { "nome": "Porta Santo Spirito", "percorso": 8 }, "geometry": { "type": "Point", "coordinates": [ 12.461986085318118, 41.89982224144056 ] } },
{ "type": "Feature", "properties": { "nome": "Via Fabio Massimo", "percorso": 9 }, "geometry": { "type": "Point", "coordinates": [ 12.461644025476685, 41.91023472458027 ] } }
]
}
